City_ID,City,Lat,Lng,Max Temp,Humidity,Cloudiness,Wind Speed,Country,Date
0,bredasdorp,-34.5322,20.0403,54.9,61,3,5.86,ZA,1684964185
1,stanley,54.868,-1.6985,54.73,77,100,0.0,GB,1684964185
2,weno,7.4515,151.8468,78.75,83,75,3.44,FM,1684964186
3,yekaterinoslavka,50.3734,129.1139,62.13,59,100,11.34,RU,1684964186
4,namibe,-15.1961,12.1522,69.53,75,1,10.36,AO,1684964186
5,forster,-32.1667,152.5167,53.78,47,58,5.39,AU,1684964186
6,aberdeen,57.1437,-2.0981,48.69,87,20,1.14,GB,1684964004
7,scottburgh,-30.2867,30.7532,61.86,72,17,7.99,ZA,1684964186
8,ust-tsilma,65.441,52.1498,59.31,80,96,3.24,RU,1684964186
9,badger,64.8,-147.5333,66.99,35,75,5.75,US,1684964186
10,bethel,41.3712,-73.414,73.27,83,84,13.47,US,1684964081
11,bardai,11.65,7.2333,81.59,56,57,8.03,NG,1684964186
12,port-aux-francais,-49.35,70.2167,43.81,99,99,12.77,TF,1684964187
13,nemuro,43.3236,145.575,47.12,69,95,8.01,JP,1684964187
14,jamestown,42.097,-79.2353,60.39,76,100,13.8,US,1684964036
15,qaqortoq,60.7167,-46.0333,33.12,100,100,9.35,GL,1684964187
16,georgetown,5.4112,100.3354,82.35,81,20,3.44,MY,1684964112
17,invercargill,-46.4,168.35,51.06,88,48,6.2,NZ,1684964044
18,blackmans bay,-43.0167,147.3167,60.93,72,70,12.28,AU,1684964187
19,adamstown,-25.066,-130.1015,74.64,74,99,6.49,PN,1684964187
20,sinabang,2.4803,96.3801,79.84,82,87,3.18,ID,1684964187
21,nowshahr,36.649,51.496,69.75,94,20,0.0,IR,1684964187
22,angra do heroismo,38.65,-27.2167,63.21,77,40,10.49,PT,1684964187
23,waitangi,-43.9535,-176.5597,50.83,80,30,1.01,NZ,1684964187
24,albany,42.6001,-73.9662,56.52,82,85,9.19,US,1684964077
25,edinburgh of the seven seas,-37.0676,-12.3116,59.09,66,90,27.02,SH,1684964188
26,iqaluit,63.7506,-68.5145,29.93,86,100,3.44,CA,1684964188
27,saint-louis,16.3333,-15.0,96.44,20,99,18.23,SN,1684964188
28,hawaiian paradise park,19.5933,-154.9731,80.11,77,20,8.05,US,1684964188
29,grytviken,-54.2811,-36.5092,33.69,64,99,12.08,GS,1684964188
30,modimolle,-24.7,28.4,58.21,52,0,2.71,ZA,1684964188
31,ilulissat,69.2167,-51.1,33.82,60,75,6.91,GL,1684964188
32,rio grande,-32.035,-52.0986,68.11,82,99,10.65,BR,1684964188
33,ushuaia,-54.8,-68.3,37.06,87,100,2.3,AR,1684964188
34,kerikeri,-35.2268,173.9474,58.91,87,10,1.99,NZ,1684964189
35,tura,25.5198,90.2201,70.56,77,13,3.96,IN,1684964189
36,santa luzia,-19.7697,-43.8514,70.88,66,40,10.36,BR,1684964189
37,margaret river,-33.95,115.0667,56.34,71,86,10.89,AU,1684964189
38,lebu,-37.6167,-73.65,53.02,80,72,10.49,CL,1684964189
39,iskateley,67.6803,53.1512,55.67,91,22,9.66,RU,1684964189
40,naze,28.3667,129.4833,70.72,75,72,8.84,JP,1684963985
41,chernyshevskiy,63.0128,112.4714,38.25,86,91,11.79,RU,1684964189
42,polyarnyy,69.1989,33.4478,53.38,64,100,16.75,RU,1684964189
43,broome,42.2506,-75.833,53.98,86,100,3.0,US,1684964189
44,hermanus,-34.4187,19.2345,60.8,69,5,11.36,ZA,1684964190
45,salalah,17.0151,54.0924,86.09,79,40,6.91,OM,1684964190
46,lompoc,34.6391,-120.4579,73.02,75,100,8.99,US,1684964190
47,mount gambier,-37.8333,140.7667,54.18,90,100,10.11,AU,1684964190
48,neiafu,-18.65,-173.9833,75.88,78,75,2.3,TO,1684964190
49,west island,-12.1568,96.8225,80.58,89,40,12.66,CC,1684964190
50,whitehorse,60.7161,-135.0538,63.01,40,75,9.22,CA,1684963905
51,donghai,22.9459,115.642,74.19,91,79,4.52,CN,1684964190
52,veshenskaya,49.6303,41.7334,60.57,83,74,1.52,RU,1684964190
53,luanco,43.6152,-5.7934,60.28,88,85,9.33,ES,1684964190
54,ribeira grande,38.5167,-28.7,62.78,83,60,13.0,PT,1684964190
55,thompson,55.7435,-97.8558,66.36,24,75,12.66,CA,1684964191
56,avarua,-21.2078,-159.775,80.65,74,100,11.5,CK,1684964191
57,atafu village,-8.5421,-172.5159,81.73,72,50,2.37,TK,1684964191
58,port lincoln,-34.7333,135.8667,58.08,77,100,15.12,AU,1684964191
59,longyearbyen,78.2186,15.6401,37.24,75,75,18.41,SJ,1684964191
60,bechar,31.6167,-2.2167,74.35,22,24,0.94,DZ,1684964191
61,petropavlovsk-kamchatsky,53.0452,158.6483,50.59,54,0,8.95,RU,1684964191
62,poshekhon'ye,58.4993,39.1353,52.25,98,8,1.16,RU,1684964192
63,volnovakha,47.601,37.4967,57.02,94,89,5.41,UA,1684964192
64,ghat,24.9647,10.1728,86.09,11,85,1.5,LY,1684964192
65,vorgashor,67.5833,63.95,46.71,80,3,8.86,RU,1684964192
66,puerto natales,-51.7236,-72.4875,38.39,66,100,19.1,CL,1684964192
67,mankono,8.0586,-6.1897,78.24,77,94,3.85,CI,1684964192
68,aykhal,66.0,111.5,30.94,92,99,12.1,RU,1684964193
69,newman,37.3138,-121.0208,76.23,26,1,10.69,US,1684964193
70,tiksi,71.6872,128.8694,21.04,92,63,2.15,RU,1684964193
71,lihue,21.9789,-159.3672,81.64,71,40,16.11,US,1684964193
72,patterson,37.4716,-121.1297,77.68,26,1,2.98,US,1684964193
73,udachny,66.4167,112.4,34.45,86,99,14.81,RU,1684964193
74,kununurra,-15.7667,128.7333,53.58,87,28,0.0,AU,1684964193
75,keflavik,64.0049,-22.5624,45.03,65,75,25.32,IS,1684964193
76,maragogi,-9.0122,-35.2225,76.68,88,5,3.33,BR,1684964193
77,manismata,-2.4667,111.0333,73.67,97,100,2.77,ID,1684964193
78,katsuura,35.1333,140.3,65.64,63,97,6.15,JP,1684964194
79,kristiansund,63.1115,7.732,45.25,76,75,17.27,NO,1684964194
80,haimen,23.1935,116.6142,73.29,91,93,6.38,CN,1684964194
81,kodiak,57.79,-152.4072,44.11,93,100,11.5,US,1684964016
82,fale old settlement,-9.3852,-171.2468,82.09,74,89,4.05,TK,1684964194
83,rapar,23.5667,70.6333,82.49,78,27,21.32,IN,1684964194
84,las tablas,7.7667,-80.2833,91.17,99,99,7.27,PA,1684964194
85,koch bihar,26.3167,89.4333,75.45,72,3,2.55,IN,1684964194
86,olonkinbyen,70.9221,-8.7187,29.12,93,100,43.31,SJ,1684964194
87,bamboo flat,11.7,92.7167,83.26,74,91,9.8,IN,1684964194
88,yellowknife,62.456,-114.3525,57.72,62,75,9.22,CA,1684964194
89,pacific grove,36.6177,-121.9166,64.35,73,100,16.11,US,1684964195
90,constitucion,-35.3333,-72.4167,55.15,83,98,4.56,CL,1684963966
91,demre,36.2537,29.9777,63.82,80,79,1.79,TR,1684964195
92,bryne,58.7354,5.6477,48.94,92,100,12.66,NO,1684964195
93,chonchi,-42.6128,-73.8092,45.61,84,55,8.97,CL,1684964195
94,mbaiki,3.8678,17.9892,76.26,64,7,2.37,CF,1684964195
95,vila franca do campo,37.7167,-25.4333,63.01,80,49,7.09,PT,1684964195
96,la ronge,55.1001,-105.2842,52.05,71,100,2.3,CA,1684964195
97,tondano,1.3038,124.9112,68.09,91,99,2.82,ID,1684964195
98,luderitz,-26.6481,15.1594,53.94,87,81,2.53,NA,1684964195
99,damara,4.9608,18.7035,74.28,79,15,2.8,CF,1684964196
100,antofagasta,-23.65,-70.4,63.68,83,26,7.83,CL,1684963984
101,remire-montjoly,4.9167,-52.2667,82.44,74,0,6.91,GF,1684964196
102,hamilton,39.1834,-84.5333,83.98,41,0,11.5,US,1684964196
103,saldanha,-33.0117,17.9442,55.45,89,100,21.39,ZA,1684964196
104,bam,29.106,58.357,85.55,16,83,8.14,IR,1684964196
105,iguape,-24.7081,-47.5553,69.04,90,0,7.18,BR,1684964196
106,puerto ayora,-0.7393,-90.3518,87.76,87,37,7.0,EC,1684964196
107,papatowai,-46.5619,169.4708,53.6,78,57,5.37,NZ,1684964196
108,zhanga buqtyrma,49.6295,83.5248,50.13,80,70,4.94,KZ,1684964197
109,bengkulu,-3.8004,102.2655,75.76,90,16,3.53,ID,1684964197
110,aasiaat,68.7098,-52.8699,30.92,78,80,7.9,GL,1684964197
111,bestobe,52.4994,73.0975,57.24,50,12,6.49,KZ,1684964197
112,gadzhiyevo,69.2551,33.3362,53.33,63,100,17.22,RU,1684964197
113,ibotirama,-12.1853,-43.2206,81.73,44,99,1.88,BR,1684964197
114,taroa,8.7058,171.2275,82.02,78,99,14.14,MH,1684964197
115,port elizabeth,-33.918,25.5701,53.89,82,0,4.61,ZA,1684964029
116,hithadhoo,-0.6,73.0833,81.97,77,98,8.52,MV,1684964197
117,manavalakurichi,8.1333,77.3,82.27,80,24,9.13,IN,1684964197
118,lodeynoye pole,60.726,33.5531,56.1,64,98,2.39,RU,1684964197
119,palmer,42.1584,-72.3287,72.91,77,75,11.5,US,1684964041
120,ust-nera,64.5667,143.2,35.92,87,82,5.21,RU,1684964198
121,richards bay,-28.783,32.0377,65.73,87,21,11.25,ZA,1684964198
122,siuna,13.7332,-84.7773,90.1,42,98,4.47,NI,1684964198
123,touros,-5.1989,-35.4608,77.56,83,31,8.88,BR,1684964198
124,crane,31.3974,-102.3501,88.86,37,3,15.21,US,1684964198
125,kenora,49.8167,-94.4337,58.17,35,75,16.11,CA,1684963973
126,onguday,50.75,86.15,49.24,72,91,2.13,RU,1684964198
127,tezu,27.9167,96.1667,70.88,95,99,3.0,IN,1684964198
128,zaozersk,69.4005,32.4476,53.19,62,100,19.01,RU,1684964198
129,mulayjah,27.271,48.4242,92.46,23,96,6.02,SA,1684964198
130,howard springs,-12.497,131.047,67.91,61,83,6.44,AU,1684964199
131,smidovich,48.6,133.8167,65.25,60,90,12.57,RU,1684964199
132,balabac,7.9868,117.0645,80.98,80,100,9.24,PH,1684964199
133,taoudenni,22.6783,-3.9836,83.7,32,100,6.55,ML,1684964199
134,san felice circeo,41.2372,13.0942,68.92,81,0,4.5,IT,1684964199
135,kalmunai,7.4167,81.8167,79.5,82,5,4.41,LK,1684964199
136,jincheng,35.5022,112.8328,59.02,78,100,1.68,CN,1684964199
137,westport,41.1415,-73.3579,71.74,64,0,6.91,US,1684964199
138,saipan,15.1355,145.701,81.97,82,100,45.48,MP,1684964199
139,sao joao da barra,-21.6403,-41.0511,69.89,79,1,7.0,BR,1684964126
140,labrador city,52.9463,-66.9114,39.11,65,100,8.05,CA,1684964200
141,tabou,4.423,-7.3528,80.01,89,100,10.11,CI,1684964200
142,margate,51.3813,1.3862,54.3,83,52,4.0,GB,1684964145
143,havre,49.5833,0.3333,54.34,87,0,9.22,FR,1684964200
144,deneysville,-26.8908,28.0971,53.55,34,19,6.2,ZA,1684964200
145,susuman,62.7833,148.1667,36.93,72,23,4.56,RU,1684964200
146,mingyue,43.1069,128.9217,61.83,43,45,5.35,CN,1684964200
147,lai,9.3952,16.2989,88.09,46,100,3.69,TD,1684964200
148,goundam,16.4145,-3.6708,95.97,15,92,16.22,ML,1684964200
149,vikhorevka,56.1201,101.1636,36.99,97,100,12.88,RU,1684964200
150,belleville,44.1788,-77.3705,60.58,43,20,16.11,CA,1684964201
151,nuku'alofa,-21.1333,-175.2,77.34,73,75,2.3,TO,1684964201
152,hargeysa,9.56,44.065,70.5,77,75,9.84,SO,1684964201
153,kapa'a,22.0752,-159.319,82.38,71,40,16.11,US,1684964201
154,san jose del cabo,23.0589,-109.6977,91.69,29,40,13.8,MX,1684964014
155,praia,14.9215,-23.5087,73.94,78,40,17.27,CV,1684963941
156,khorixas,-20.3667,14.9667,62.53,47,2,1.72,NA,1684964201
157,beidao,34.5686,105.8933,61.36,79,100,1.19,CN,1684964201
158,okhotsk,59.3833,143.3,35.87,89,100,4.88,RU,1684964201
159,hammerfest,70.6634,23.6821,39.65,93,40,4.61,NO,1684964201
160,severo-yeniseyskiy,60.3725,93.0408,27.68,95,50,3.0,RU,1684964201
161,quepos,9.4236,-84.1652,82.99,77,63,3.6,CR,1684964202
162,tionk essil,12.7856,-16.5217,82.45,62,100,11.77,SN,1684964202
163,nishinoomote,30.7333,131.0,71.17,55,71,12.75,JP,1684964202
164,bilibino,68.0546,166.4372,44.08,58,35,3.56,RU,1684964202
165,san patricio,28.017,-97.5169,92.16,54,34,10.8,US,1684964202
166,vilyuchinsk,52.9306,158.4028,52.07,80,5,8.08,RU,1684964202
167,santa rosalia,27.3167,-112.2833,83.71,32,6,3.87,MX,1684964202
168,enewetak,11.3474,162.3373,82.13,76,100,14.41,MH,1684964202
169,alaghsas,17.0187,8.0168,97.2,15,54,3.83,NE,1684964202
170,callao,-12.0667,-77.15,75.49,64,0,12.66,PE,1684964178
171,wum,6.3833,10.0667,68.09,93,99,2.71,CM,1684964203
172,gereshk,31.8209,64.5701,82.36,15,0,25.64,AF,1684964203
173,kailua-kona,19.6406,-155.9956,82.36,82,40,12.66,US,1684964126
174,caleta olivia,-46.4393,-67.5281,50.5,38,7,29.19,AR,1684964203
175,road town,18.4167,-64.6167,84.29,70,20,6.91,VG,1684964203
176,papao,-17.75,-149.55,83.66,77,9,5.73,PF,1684964203
177,al bawiti,28.3492,28.8659,75.06,40,65,9.6,EG,1684964203
178,alice springs,-23.7,133.8833,38.75,75,0,3.04,AU,1684964108
179,kerema,-7.9631,145.7785,77.13,88,100,2.42,PG,1684964203
180,howrah,22.5892,88.3103,78.8,94,20,3.44,IN,1684964203
181,mirny,62.5353,113.9611,41.23,52,97,15.99,RU,1684964203
182,colonia,50.9333,6.95,54.82,83,0,2.3,DE,1684964041
183,jinchang,38.4953,102.1739,53.06,32,73,4.38,CN,1684964204
184,belyy yar,53.6039,91.3903,31.89,64,0,2.24,RU,1684964204
185,dara,15.3484,-15.4799,100.36,23,92,17.43,SN,1684964204
186,suixi,33.8907,116.7747,57.4,77,28,4.36,CN,1684964204
187,ouani,-12.1322,44.4258,78.17,76,9,7.43,KM,1684964204
188,borba,-4.3878,-59.5939,77.45,92,53,2.28,BR,1684964204
189,itanhem,-17.1664,-40.33,67.68,96,21,5.55,BR,1684964204
190,cole harbour,44.6724,-63.4751,49.39,91,34,9.22,CA,1684964090
191,gandajika,-6.75,23.95,76.96,49,65,2.06,CD,1684964204
192,bakanas,44.8081,76.2772,61.61,29,0,5.03,KZ,1684964204
193,tuy hoa,13.0833,109.3,77.83,87,98,4.94,VN,1684964205
194,guarapuava,-25.3953,-51.4581,55.17,74,0,2.44,BR,1684964089
195,fray luis beltran,-39.3167,-65.7667,57.47,34,68,8.43,AR,1684964205
196,kaa-khem,51.6833,94.7333,38.05,64,5,7.34,RU,1684964205
197,afaahiti,-17.75,-149.2833,82.06,78,27,5.84,PF,1684964210
198,castillos,-34.1667,-53.8333,70.79,73,100,6.93,UY,1684964210
199,jutai,-5.1833,-68.9,73.44,99,100,1.19,BR,1684964210
200,rundu,-17.9333,19.7667,63.32,28,19,5.26,NA,1684964210
201,sitka,57.0531,-135.33,51.69,87,100,3.44,US,1684964055
202,minas de marcona,-15.2119,-75.1103,63.9,72,48,12.46,PE,1684964210
203,uturoa,-16.7333,-151.4333,81.18,67,14,1.88,PF,1684964211
204,santa cruz cabralia,-16.2781,-39.0247,73.63,94,20,2.3,BR,1684964211
205,wailua homesteads,22.0669,-159.378,81.03,71,40,16.11,US,1684964015
206,mount pearl,47.5166,-52.7813,52.14,75,20,5.75,CA,1684964211
207,salaqi,40.5414,110.5108,53.53,54,73,8.08,CN,1684964211
208,nadym,65.5333,72.5167,40.26,73,2,9.84,RU,1684964211
209,araguaina,-7.1911,-48.2072,80.15,73,92,1.36,BR,1684964211
210,olinda,-8.0089,-34.8553,78.53,83,40,6.91,BR,1684964024
211,usinsk,65.9939,57.5281,59.29,66,82,9.57,RU,1684964211
212,bingol,38.8847,40.4939,54.57,75,53,5.75,TR,1684964212
213,mata-utu,-13.2816,-176.1745,81.88,78,79,9.33,WF,1684964212
214,aioun,16.6614,-9.6149,95.0,16,78,22.35,MR,1684964212
215,fisterra,42.9049,-9.2629,66.02,80,41,15.93,ES,1684964212
216,baiti,13.745,-14.7482,98.11,16,100,17.34,SN,1684964212
217,aqadyr,48.2553,72.8483,53.6,45,4,5.59,KZ,1684964212
218,ratanpur,22.3,82.1667,88.48,26,83,1.88,IN,1684964212
219,magong,23.5654,119.5863,75.16,88,45,7.58,TW,1684964212
220,khovd,48.0056,91.6419,46.92,56,74,4.52,MN,1684964212
221,rabaul,-4.1967,152.1721,76.3,93,100,5.06,PG,1684964213
222,tolanaro,-25.0319,46.9987,62.67,100,40,0.0,MG,1684964213
223,oriximina,-1.7656,-55.8661,80.78,79,84,3.11,BR,1684964213
224,bataipora,-22.2953,-53.2711,67.33,65,0,5.97,BR,1684964213
225,plouzane,48.3833,-4.6167,53.78,87,0,6.91,FR,1684964213
226,vizinga,61.0749,50.1031,61.95,62,93,5.48,RU,1684964213
227,maceio,-9.6658,-35.7353,76.44,94,100,3.44,BR,1684964213
228,fort bragg,35.139,-79.006,79.2,27,0,11.5,US,1684964213
229,dunedin,-45.8742,170.5036,53.8,74,90,5.01,NZ,1684964213
230,hacilar,38.6463,35.4494,44.29,87,0,1.14,TR,1684964213
231,camana,-16.6228,-72.7111,68.16,84,42,8.52,PE,1684964214
232,el calafate,-50.3408,-72.2768,32.97,74,79,3.71,AR,1684964214
233,nova xavantina,-14.6667,-52.35,75.11,60,53,1.16,BR,1684964214
234,ocotal,13.6321,-86.4752,83.61,56,99,3.71,NI,1684964214
235,khandyga,62.6667,135.6,45.46,55,83,1.52,RU,1684964214
236,gordonvale,-17.0936,145.7842,70.9,96,88,5.93,AU,1684964214
237,axim,4.8699,-2.2405,79.95,86,100,8.57,GH,1684964214
238,pariaman,-0.619,100.12,75.25,88,9,3.27,ID,1684964214
239,ancud,-41.8697,-73.8203,48.92,80,46,19.3,CL,1684963953
240,carutapera,-1.195,-46.02,78.19,86,99,7.4,BR,1684964215
241,bonthe,7.5264,-12.505,81.82,82,88,4.21,SL,1684964215
242,yeppoon,-23.1333,150.7333,60.58,77,4,10.07,AU,1684964215
243,krasnyy chikoy,50.3643,108.7512,37.13,95,100,2.51,RU,1684964215
244,isafjordur,66.0755,-23.124,37.78,69,40,33.06,IS,1684964215
245,kitimat,54.0524,-128.6534,70.18,50,66,10.0,CA,1684964215
246,punta arenas,-53.15,-70.9167,37.51,81,75,9.22,CL,1684964215
247,paita,-5.0892,-81.1144,77.09,75,29,16.82,PE,1684964215
248,arno,60.1167,18.6333,56.79,61,86,10.38,SE,1684964216
249,la sarre,48.8002,-79.1996,50.22,33,0,12.33,CA,1684964000
250,villa de soto,-30.8552,-64.9995,67.64,78,100,8.32,AR,1684964216
251,moyynkum,44.2914,72.9469,61.59,38,1,5.21,KZ,1684964216
252,eunice,30.4944,-92.4176,83.93,58,67,12.68,US,1684964216
253,constantia,44.1833,28.65,57.88,81,15,1.79,RO,1684964216
254,qionghai,19.2425,110.4642,77.43,97,100,3.24,CN,1684964216
255,nar'yan-mar,67.6713,53.087,55.78,91,23,9.73,RU,1684964216
256,piacabucu,-10.4056,-36.4344,77.11,84,3,7.67,BR,1684964217
257,mangrol,21.1167,70.1167,82.45,83,37,14.63,IN,1684964217
258,utrik,11.2278,169.8474,81.75,79,99,15.26,MH,1684964217
259,morondava,-20.2833,44.2833,68.18,71,0,8.48,MG,1684964217
260,pyhaselka,62.4333,29.9667,59.27,73,72,6.04,FI,1684964217
261,port mathurin,-19.6833,63.4167,76.89,71,64,14.58,MU,1684964217
262,lazaro cardenas,17.9583,-102.2,86.72,62,99,11.14,MX,1684963968
263,chul'man,56.8479,124.9104,39.69,71,21,2.42,RU,1684964217
264,pskov,57.8136,28.3496,49.91,100,4,2.24,RU,1684964218
265,college,64.8569,-147.8028,67.08,34,75,5.75,US,1684964076
266,qui nhon,13.7667,109.2333,79.32,85,99,3.42,VN,1684964218
267,leava,-14.3,-178.1667,80.71,80,99,13.0,WF,1684964218
268,port victoria,0.0939,33.9756,69.4,79,57,5.73,KE,1684964218
269,hilo,19.7297,-155.09,82.27,72,20,8.05,US,1684964218
270,ironwood,46.4547,-90.171,62.94,50,20,10.36,US,1684964218
271,banda aceh,5.5577,95.3222,80.6,81,94,11.16,ID,1684964218
272,binji,13.2228,4.9096,98.1,28,92,9.84,NG,1684964218
273,tazovsky,67.4667,78.7,31.1,90,2,3.62,RU,1684964218
274,mildura,-34.2,142.15,53.08,58,100,14.23,AU,1684964219
275,thunder bay,48.4001,-89.3168,51.78,25,75,9.22,CA,1684964219
276,kidal,18.4411,1.4078,96.66,14,62,18.34,ML,1684964219
277,nova vicosa,-17.8919,-39.3719,73.98,85,24,12.59,BR,1684964219
278,karratha,-20.7377,116.8463,67.06,29,1,9.66,AU,1684964219
279,zayed city,24.3768,54.589,89.01,63,0,4.61,AE,1684964219
280,codrington,-38.2667,141.9667,52.74,90,100,13.38,AU,1684964219
281,clearwater,27.9659,-82.8001,75.92,88,100,21.85,US,1684963950
282,rabo de peixe,37.8,-25.5833,62.11,72,20,8.05,PT,1684964202
283,batouri,4.4333,14.3667,74.3,72,92,1.34,CM,1684964220
284,were ilu,10.6,39.4333,53.69,75,64,4.52,ET,1684964220
285,pedernales,18.0384,-71.744,81.52,73,14,1.32,DO,1684964220
286,novodvinsk,64.4165,40.8122,56.08,90,2,4.56,RU,1684964220
287,bubaque,11.2833,-15.8333,81.97,72,100,18.32,GW,1684964220
288,ndelele,4.0333,14.9333,74.5,71,82,2.8,CM,1684964220
289,bikenibeu village,1.3673,173.1241,84.16,79,75,8.05,KI,1684964220
290,nguigmi,14.2495,13.1092,86.32,45,84,5.03,NE,1684964220
291,ust'-ilimsk,58.0006,102.6619,35.4,99,100,4.81,RU,1684964220
292,talnakh,69.4865,88.3972,18.25,91,44,1.92,RU,1684964221
293,al hazm,16.1641,44.7769,80.06,47,100,6.49,YE,1684964221
294,anloga,5.7947,0.8973,82.89,79,98,12.44,GH,1684964221
295,christchurch,-43.5333,172.6333,48.9,91,17,3.44,NZ,1684964016
296,tukrah,32.5341,20.5791,71.04,62,0,13.67,LY,1684964221
297,plastun,44.7561,136.2939,63.79,57,11,2.37,RU,1684964221
298,ulsteinvik,62.3432,5.8487,48.76,84,88,18.01,NO,1684964221
299,palikir - national government center,6.9248,158.1611,84.94,74,100,5.75,FM,1684964221
300,saint-philippe,-21.3585,55.7679,72.99,86,100,9.06,RE,1684964221
301,pisco,-13.7,-76.2167,75.25,64,0,16.11,PE,1684963924
302,st. john's,47.5649,-52.7093,52.99,76,20,5.75,CA,1684964164
303,kita,13.0349,-9.4895,94.01,32,100,5.64,ML,1684964222
304,prince albert,53.2001,-105.7677,66.15,59,100,11.5,CA,1684964222
305,rockland,41.1668,-74.0496,75.02,51,89,7.76,US,1684964222
306,geraldton,-28.7667,114.6,52.21,82,0,12.66,AU,1684964222
307,yakeshi,49.2833,120.7333,57.87,68,99,8.46,CN,1684964222
308,talara,-4.5772,-81.2719,86.76,62,0,15.86,PE,1684964222
309,lincheng,19.9078,109.6858,78.84,85,100,1.05,CN,1684964223
310,bossangoa,6.4926,17.4552,77.92,64,100,4.92,CF,1684964223
311,burabay,53.0838,70.3138,56.32,50,13,1.77,KZ,1684964223
312,saint george's,12.0564,-61.7485,83.88,79,20,13.8,GD,1684964223
313,gurupa,-1.405,-51.64,76.75,92,35,3.58,BR,1684964223
314,marrakesh,31.6315,-8.0083,69.87,56,40,10.36,MA,1684964201
315,buka,40.8108,69.1986,60.84,33,0,3.47,UZ,1684964223
316,paciran,-6.8767,112.3761,75.97,89,27,6.51,ID,1684964223
317,nurmijarvi,60.4641,24.8073,58.89,70,0,6.91,FI,1684964223
318,lucapa,-8.4192,20.7447,73.22,60,57,1.01,AO,1684964223
319,jinghong,21.991,100.7341,72.41,63,36,2.26,CN,1684964224
320,anadyr,64.75,177.4833,41.5,70,75,17.9,RU,1684964224
321,maturin,9.75,-63.1767,93.04,66,98,6.91,VE,1684964224
322,newport,51.5877,-2.9984,59.11,89,1,9.82,GB,1684964224
323,tahe,52.3333,124.7333,50.32,88,100,4.99,CN,1684964224
324,angaur state,6.906,134.13,83.21,79,100,17.25,PW,1684964224
325,flagstaff,35.1981,-111.6513,75.6,24,0,12.66,US,1684964224
326,jamshedpur,22.8,86.1833,85.59,54,64,3.58,IN,1684964225
327,brisas de zicatela,15.8369,-97.0419,90.12,70,40,8.05,MX,1684964225
328,santo antonio,-6.3106,-35.4789,73.69,88,13,6.04,BR,1684964225
329,palafrugell,41.9174,3.1631,66.45,43,20,1.01,ES,1684964225
330,fayroz koh,34.5195,65.2509,52.56,51,0,4.18,AF,1684964225
331,port blair,11.6667,92.75,83.25,74,90,9.98,IN,1684963982
332,sandnessjoen,66.0217,12.6316,44.71,77,75,24.16,NO,1684964225
333,vaxjo,56.8777,14.8091,57.25,76,0,6.91,SE,1684964225
334,krasnovishersk,60.4078,57.082,58.08,68,57,4.0,RU,1684964226
335,kavaratti,10.5669,72.642,84.79,70,7,7.36,IN,1684964226
336,bodo,67.28,14.405,42.84,80,75,24.16,NO,1684964226
337,aswan,24.0934,32.907,88.5,14,22,11.27,EG,1684964226
338,notodden,59.5594,9.2585,55.22,65,58,4.56,NO,1684964146
339,sao miguel do araguaia,-13.275,-50.1628,79.61,47,50,2.15,BR,1684964226
340,medicine hat,50.0501,-110.6683,65.21,55,100,9.22,CA,1684964121
341,fortuna,40.5982,-124.1573,63.93,74,0,14.97,US,1684964116
342,port moresby,-9.4431,147.1797,74.62,94,75,11.5,PG,1684964226
343,yermolayevo,52.7167,55.8,61.09,50,23,6.44,RU,1684964226
344,maintirano,-18.0667,44.0167,71.06,73,0,10.76,MG,1684964226
345,alva,56.1528,-3.8051,54.59,63,3,1.99,GB,1684964227
346,saguenay,48.4168,-71.0657,54.41,53,75,40.29,CA,1684964227
347,khorinsk,52.1657,109.7726,38.8,68,100,7.61,RU,1684964227
348,berdigestyakh,62.0989,126.6992,43.48,56,16,3.91,RU,1684964227
349,san antonio de pale,-1.4014,5.6325,80.13,87,83,8.03,GQ,1684964227
350,colares,38.7992,-9.4469,69.76,65,20,14.0,PT,1684964227
351,san bernardo del viento,9.3533,-75.9524,82.76,76,100,7.4,CO,1684964227
352,opuwo,-18.0607,13.84,63.12,50,3,3.98,NA,1684964227
353,ponnur,16.0711,80.5494,86.54,75,1,8.55,IN,1684964227
354,zhangatas,43.5667,69.75,60.06,43,21,5.01,KZ,1684964228
355,acapulco de juarez,16.8634,-99.8901,89.42,62,20,13.8,MX,1684963938
356,aden,12.7794,45.0367,85.86,74,58,10.98,YE,1684964228
357,north bay,46.3168,-79.4663,53.11,42,20,16.11,CA,1684964064
358,roma,43.2128,-75.4557,54.73,76,100,10.36,US,1684964228
359,nyurba,63.2842,118.3319,42.82,49,22,5.48,RU,1684964228
360,zyrya,40.3661,50.2917,71.69,78,88,7.38,AZ,1684964228
361,port alfred,-33.5906,26.891,68.32,42,67,9.82,ZA,1684964228
362,revda,56.801,59.9303,57.06,56,43,2.13,RU,1684964228
363,holualoa,19.6228,-155.9522,78.64,82,40,12.66,US,1684964061
364,falmouth,50.1544,-5.0711,55.98,79,0,14.97,GB,1684964229
365,gremda,34.75,10.7833,70.0,83,40,5.75,TN,1684964229
366,mahanoro,-19.9,48.8,67.46,92,61,6.38,MG,1684964229
367,el granada,37.5027,-122.4694,75.45,65,100,13.8,US,1684964229
368,coahuayana de hidalgo,18.7,-103.6583,88.88,55,100,7.61,MX,1684964229
369,okondja,-0.6549,13.6753,73.4,97,91,2.17,GA,1684964229
370,east london,-33.0153,27.9116,68.72,35,51,9.33,ZA,1684964229
371,klyuchi,52.2667,79.1667,52.72,49,14,7.56,RU,1684964229
372,sikasso,10.9167,-7.0,78.91,73,57,13.78,ML,1684964229
373,sorsk,54.0033,90.2467,33.19,67,8,2.55,RU,1684964229
374,mhamid,29.82,-5.72,78.69,14,0,7.94,MA,1684964230
375,beaufort west,-32.3567,22.583,61.75,29,99,9.15,ZA,1684964230
376,nejo,9.5,35.5,60.26,81,76,1.45,ET,1684964230
377,lerwick,60.1545,-1.1494,48.2,77,7,21.34,GB,1684964230
378,furukawa,38.5717,140.9556,55.58,67,67,3.29,JP,1684964230
379,selkirk,50.1436,-96.8845,68.11,51,53,8.99,CA,1684964037
380,hit,33.6416,42.8251,79.29,44,26,13.24,IQ,1684964230
381,ayorou,14.7308,0.9174,101.12,21,36,2.62,NE,1684964230
382,puerto leguizamo,-0.1934,-74.7819,80.69,82,66,2.08,CO,1684964230
383,puerto santa,-8.9906,-78.6456,73.45,79,91,11.23,PE,1684964230
384,winnemucca,40.973,-117.7357,73.45,28,20,3.44,US,1684964231
385,yuzhno-kurilsk,44.0306,145.8556,50.36,60,100,5.14,RU,1684964231
386,skovorodino,53.9833,123.9167,46.09,86,74,4.09,RU,1684964231
387,sao gabriel da cachoeira,-0.1303,-67.0892,80.35,86,63,1.03,BR,1684964231
388,birjand,32.8663,59.2211,72.07,23,0,9.22,IR,1684964231
389,chalala,21.4167,71.1667,80.6,82,5,14.27,IN,1684964231
390,korla,41.7597,86.1469,65.61,24,100,8.23,CN,1684964231
391,coquimbo,-29.9533,-71.3436,64.13,82,20,11.5,CL,1684964027
392,smithers,54.7804,-127.1743,70.12,35,40,4.61,CA,1684964231
393,la passe,45.5549,-0.8967,62.83,67,99,14.36,FR,1684964231
394,zimapan,20.75,-99.35,77.7,44,88,11.07,MX,1684964232
395,vadso,70.0744,29.7487,52.68,71,40,12.66,NO,1684964232
396,santa terezinha,-29.9002,-50.0904,69.26,90,1,13.18,BR,1684964232
397,kalajoki,64.25,23.95,49.91,94,100,4.99,FI,1684964232
398,maych'ew,12.7875,39.5422,58.23,72,64,4.05,ET,1684964232
399,sisimiut,66.9395,-53.6735,34.03,73,34,5.28,GL,1684964232
400,antonio enes,-16.2325,39.9086,73.72,74,0,8.19,MZ,1684964232
401,dazhou,31.2159,107.5009,69.35,75,100,4.41,CN,1684964232
402,reggane,26.7158,0.1714,83.75,9,100,12.46,DZ,1684964232
403,tsiombe,-25.3,45.4833,61.61,71,2,5.1,MG,1684964232
404,cadale,2.7603,46.3222,80.31,80,57,12.75,SO,1684964233
405,upata,8.0086,-62.3989,87.19,64,95,5.61,VE,1684964233
406,saint-joseph,-21.3667,55.6167,71.98,85,100,8.72,RE,1684964233
407,ta`u,-14.2336,-169.5144,81.01,78,99,3.67,AS,1684964233
408,homer,59.6425,-151.5483,53.04,71,100,3.44,US,1684964233
409,pangoa,-12.1167,-73.0,72.84,97,89,1.25,PE,1684964233
410,fauske,67.2588,15.3918,42.84,76,86,10.56,NO,1684964233
411,yima,34.7381,111.8839,60.17,79,100,1.68,CN,1684964233
412,hadibu,12.65,54.0333,84.34,73,19,8.3,YE,1684964233
413,ingeniero guillermo n. juarez,-23.9,-61.85,83.3,47,98,9.62,AR,1684964234
414,torbat-e heydariyeh,35.274,59.2195,70.3,29,0,8.21,IR,1684964234
415,mersa matruh,31.3525,27.2453,66.4,83,0,5.99,EG,1684964234
416,andalgala,-27.5819,-66.3165,62.92,47,0,2.44,AR,1684964234
417,quirihue,-36.2833,-72.5333,51.13,89,100,2.39,CL,1684964234
418,corral de bustos,-33.2821,-62.1846,67.24,94,99,5.68,AR,1684964234
419,new norfolk,-42.7826,147.0587,62.1,67,74,8.99,AU,1684964234
420,dingcheng,32.1272,115.0394,62.04,85,3,3.18,CN,1684964234
421,puerto rico,-26.796,-55.024,72.77,68,0,2.71,AR,1684964235
422,caconda,-13.7333,15.0667,58.23,44,15,3.47,AO,1684964235
423,jiexiu,37.0244,111.9125,63.93,57,99,5.88,CN,1684964235
424,albisola superiore,44.3389,8.5105,65.14,81,10,4.21,IT,1684964235
425,vorkuta,67.5,64.0,47.57,79,3,8.93,RU,1684964235
426,mandalgovi,45.7625,106.2708,45.09,52,22,12.06,MN,1684964235
427,cockburn town,21.4612,-71.1419,82.63,70,41,3.22,TC,1684964235
428,nerchinsk,51.9833,116.5833,48.49,49,92,3.62,RU,1684964073
429,argo,37.6333,22.7333,64.78,73,4,2.28,GR,1684964235
430,dudinka,69.4058,86.1778,31.73,93,100,1.01,RU,1684964235
431,wuyishan,28.0047,117.8114,64.98,94,51,3.74,CN,1684964236
432,kavalerovo,44.2661,135.0572,62.49,50,94,1.14,RU,1684964236
433,haiku-pauwela,20.9219,-156.3051,82.42,59,40,23.02,US,1684964236
434,pallisa,1.145,33.7094,65.26,94,32,4.07,UG,1684964236
435,nova olinda do norte,-3.8881,-59.0942,77.52,94,100,1.34,BR,1684964236
436,tamanrasset,22.785,5.5228,82.31,12,0,18.41,DZ,1684964236
437,birnin kebbi,12.4539,4.1975,97.11,32,55,12.19,NG,1684964236
438,segovia,41.1667,-4.0,56.43,79,54,2.51,ES,1684964236
439,kenai,60.5544,-151.2583,55.49,76,100,13.8,US,1684964236
440,dolisie,-4.1997,12.6739,72.77,97,99,3.56,CG,1684964237
441,bandarbeyla,9.4942,50.8122,81.9,77,90,18.97,SO,1684964237
442,raja,8.4596,25.678,83.61,43,100,5.06,SS,1684964237
443,aras-asan,8.8908,126.3033,78.46,87,82,4.97,PH,1684964237
444,namtsy,62.7161,129.6658,44.26,64,46,1.86,RU,1684964237
445,akureyri,65.6835,-18.0878,40.93,65,75,12.66,IS,1684964237
446,longgang,37.6508,120.3286,61.54,61,88,16.44,CN,1684964238
447,inverloch,-38.6333,145.7167,56.98,54,93,24.85,AU,1684964238
448,mkushi,-13.6202,29.3939,59.32,70,2,4.88,ZM,1684964238
449,kota kinabalu,5.9749,116.0724,78.78,83,20,4.61,MY,1684964238
450,hauterive,46.0901,3.4459,59.76,79,29,4.72,FR,1684964238
451,oyama,36.3,139.8,60.58,48,99,1.14,JP,1684964067
452,dogondoutchi,13.6393,4.0287,101.79,21,94,7.38,NE,1684964238
453,miquelon,47.0975,-56.3814,46.4,78,0,10.49,PM,1684964238
454,villa maria grande,-31.6656,-59.9018,70.52,85,61,6.69,AR,1684964239
455,svetlyy,54.675,20.1347,60.96,77,60,4.0,RU,1684964239
456,aldama,22.9167,-98.0667,93.49,45,17,12.86,MX,1684964239
457,san antonio,29.4241,-98.4936,89.91,42,40,10.36,US,1684964105
458,cannonvale,-20.2833,148.7,67.39,71,64,16.6,AU,1684964239
459,sola,-13.8833,167.55,79.56,72,90,23.49,VU,1684964239
460,zhengzhou,34.7578,113.6486,63.09,71,100,5.08,CN,1684964239
461,timbiqui,2.7717,-77.6654,81.0,85,84,3.8,CO,1684964240
462,villa bisono,19.5638,-70.8758,75.58,93,98,0.94,DO,1684964240
463,urcos,-13.6861,-71.6228,60.69,65,89,6.93,PE,1684964240
464,masterton,-40.9597,175.6575,48.88,84,2,1.81,NZ,1684964240
465,ponta delgada,37.7333,-25.6667,63.32,72,20,8.05,PT,1684964240
466,tiangua,-3.7322,-40.9917,68.25,90,100,3.69,BR,1684964198
467,zagora,30.3484,-5.8365,76.21,15,0,3.51,MA,1684964240
468,hajo,26.25,91.5333,74.21,88,41,4.47,IN,1684964240
469,poronaysk,49.2167,143.1167,55.96,67,75,2.53,RU,1684964240
470,jianshui,23.6363,102.8264,65.91,77,1,3.44,CN,1684964241
471,grabovo,53.3875,45.064,61.74,52,62,8.23,RU,1684964241
472,chibougamau,49.9168,-74.3659,40.62,65,100,12.66,CA,1684964241
473,glencoe,-28.1783,30.147,50.61,43,73,4.07,ZA,1684964241
474,edinburgh,55.9521,-3.1965,54.03,75,0,5.75,GB,1684964182
475,urengoy,65.9667,78.3667,32.38,98,80,2.59,RU,1684964241
476,maasin,10.1336,124.8447,81.34,79,84,2.08,PH,1684964241
477,rawai,7.7797,98.3253,87.98,99,32,11.7,TH,1684964241
478,rawson,-43.3002,-65.1023,55.35,32,100,7.92,AR,1684964241
479,tazacorte,28.629,-17.9293,68.97,84,100,6.91,ES,1684964242
480,qarazhal,48.0078,70.7903,57.0,44,6,8.63,KZ,1684964242
481,tateyama,34.9833,139.8667,66.11,64,100,6.71,JP,1684964242
482,hailar,49.2,119.7,53.58,91,100,2.62,CN,1684964101
483,zhigalovo,54.8097,105.1578,36.05,90,99,6.53,RU,1684964242
484,buala,-8.145,159.5921,81.72,81,95,4.97,SB,1684964242
485,mbanza-ngungu,-5.25,14.8667,71.13,87,93,1.63,CD,1684964242
486,digne-les-bains,44.0833,6.25,53.26,91,100,4.52,FR,1684964242
487,salinas,36.6777,-121.6555,65.82,61,100,16.11,US,1684964026
488,hotan,37.0997,79.9269,65.41,42,100,19.04,CN,1684964242
489,ad dilam,23.9915,47.1627,90.01,32,15,5.57,SA,1684964243
490,palmas,-10.2128,-48.3603,85.87,54,20,4.61,BR,1684964243
491,valverde del camino,37.5751,-6.7543,64.02,79,17,2.68,ES,1684964243
492,ashland,40.8167,-82.2665,66.96,72,20,16.71,US,1684964243
493,herceg novi,42.4531,18.5375,65.28,94,39,1.14,ME,1684964243
494,sanibel,26.449,-82.0223,90.05,63,12,5.01,US,1684964243
495,swainsboro,32.5974,-82.3337,80.65,32,0,3.44,US,1684964243
496,port saint john's,-31.6229,29.5448,65.46,60,17,8.28,ZA,1684964243
497,tukzar,35.9483,66.4213,63.03,35,1,3.65,AF,1684964243
498,caleta de carquin,-11.0925,-77.6267,72.66,76,36,9.86,PE,1684964244
499,fada,9.5667,8.3,74.21,84,61,2.42,NG,1684964244
500,carnarvon,-24.8667,113.6333,65.48,77,76,19.35,AU,1684964244
501,minab,27.1467,57.0801,86.72,42,88,2.98,IR,1684964244
502,pierre,44.3683,-100.351,85.12,36,75,16.11,US,1684964244
503,lib,8.3122,167.3766,81.66,80,99,13.8,MH,1684964244
504,zhumysker,49.3333,49.4,66.88,52,56,10.87,KZ,1684964244
505,tual,-5.6667,132.75,81.66,76,100,23.09,ID,1684964244
506,brody,50.0879,25.1503,58.66,66,91,2.28,UA,1684964244
507,weigelstown,39.9837,-76.8225,82.0,34,20,5.75,US,1684964245
508,taulaga,-11.0553,-171.0883,81.9,68,72,2.66,AS,1684964245
509,genhe,50.7833,121.5167,47.19,88,100,2.51,CN,1684964245
510,zhanaozen,43.3,52.8,76.12,28,86,18.05,KZ,1684964245
511,lalitpur,27.6667,85.3333,66.58,77,40,4.61,NP,1684964245
512,mugia,43.1041,-9.2179,66.16,85,49,21.65,ES,1684964245
513,idri,27.5,13.2667,84.63,8,100,10.58,LY,1684964245
514,karbala,32.616,44.0249,86.63,29,100,11.68,IQ,1684964245
515,illela,13.7292,5.2975,97.5,23,100,6.8,NG,1684964246
516,shitanjing,39.2342,106.3439,52.5,44,51,18.59,CN,1684964246
517,kachug,53.9606,105.8817,33.19,83,20,4.32,RU,1684964246
518,la'ie,21.6477,-157.9253,84.16,71,12,16.02,US,1684964246
519,veraval,20.9,70.3667,82.87,80,45,14.29,IN,1684964246
520,kampung sungai ara,5.327,100.2735,82.33,83,20,0.0,MY,1684964246
521,saint-pierre,-21.3393,55.4781,73.08,68,0,6.91,RE,1684964246
522,ulladulla,-35.35,150.4667,57.83,44,49,8.23,AU,1684964246
523,mejit,10.2753,170.8646,81.52,79,93,15.03,MH,1684964246
524,marquette,46.5333,-87.6335,53.26,63,94,7.0,US,1684964175
525,lensk,60.7253,114.9278,46.78,63,99,7.31,RU,1684964251
526,isangel,-19.55,169.2667,71.71,78,75,5.75,VU,1684964252
527,kasane,-17.8167,25.15,61.86,53,0,4.97,BW,1684964252
528,wynyard,-41.0,145.7167,54.77,87,100,20.36,AU,1684964252
529,kruisfontein,-34.0033,24.7314,58.42,60,78,8.05,ZA,1684964252
530,aitape,-3.1374,142.3475,79.27,83,100,1.9,PG,1684964252
531,val-d'or,48.1002,-77.7828,44.69,57,75,17.27,CA,1684964252
532,buncrana,55.1333,-7.45,51.57,93,2,3.89,IE,1684964252
533,dalbandin,28.8947,64.4101,84.16,14,0,11.41,PK,1684964252
534,marsa alam,25.0757,34.8918,79.68,66,1,3.74,EG,1684964006
535,labytnangi,66.6572,66.4183,50.0,65,0,4.81,RU,1684964252
536,leh,34.1667,77.5833,44.53,69,100,3.76,IN,1684964253
537,isiro,2.7739,27.616,67.19,93,80,2.37,CD,1684964253
538,brookings,44.3114,-96.7984,83.44,35,20,14.97,US,1684963987
539,conduaga,8.862,117.4893,79.25,85,93,3.87,PH,1684964253
540,maqat,47.65,53.3167,72.55,24,9,12.12,KZ,1684964253
541,domna,51.8971,113.1573,39.36,80,40,2.24,RU,1684964253
542,arraial do cabo,-22.9661,-42.0278,73.26,83,0,9.22,BR,1684964253
543,tafuna,-14.3358,-170.72,82.35,94,75,3.44,AS,1684964253
544,nova sintra,14.8667,-24.7167,68.65,80,93,10.69,CV,1684964253
545,temerluh,3.4506,102.4176,75.97,98,34,0.29,MY,1684964254
546,mahina,-17.5065,-149.489,83.75,69,40,10.36,PF,1684964254
547,challapata,-18.9,-66.7667,48.79,19,4,7.74,BO,1684964254
548,muli,2.9167,73.5667,83.16,76,70,9.04,MV,1684964254
549,dean funes,-30.4204,-64.3498,64.36,89,98,9.19,AR,1684964254
550,fuling,29.7022,107.3919,69.42,82,88,2.08,CN,1684964254
551,am timan,11.0297,20.2827,94.33,21,16,2.95,TD,1684964254
552,nacozari de garcia,30.3742,-109.6908,88.14,10,2,15.28,MX,1684964254
553,peace river,56.2501,-117.286,57.51,71,100,2.3,CA,1684964254
554,novyy urgal,51.0736,132.5642,56.73,85,88,1.79,RU,1684964254
555,mount isa,-20.7333,139.5,56.97,58,2,5.75,AU,1684964255
556,guarapari,-20.6667,-40.4975,72.9,81,5,1.97,BR,1684964255
557,longonjo,-12.9067,15.2533,60.58,47,11,1.05,AO,1684964255
558,hillsborough,37.5741,-122.3794,74.82,64,20,13.8,US,1684964201
559,aflou,34.1128,2.1023,54.3,62,45,14.36,DZ,1684964255
560,lospalos,-8.5186,127.0025,70.95,87,60,6.06,TL,1684964255
561,bandrele,-12.9067,45.1914,78.55,78,0,6.91,YT,1684964255
562,vila velha,-20.3297,-40.2925,73.35,85,40,4.61,BR,1684964001
563,rosso,16.4986,-15.8153,84.83,30,100,16.37,SN,1684964255
564,the pas,53.8251,-101.2541,64.42,42,0,23.02,CA,1684964255
565,selfoss,63.9331,-20.9971,43.05,74,59,18.61,IS,1684964256
566,siwa oasis,29.2041,25.5195,79.0,39,17,13.58,EG,1684964256
567,port augusta,-32.5,137.7667,56.88,37,100,12.8,AU,1684964256
568,menongue,-14.6585,17.691,58.23,46,0,4.16,AO,1684964256
569,ola,59.5833,151.2833,43.14,75,95,3.49,RU,1684964256
570,nizhneangarsk,55.7833,109.55,30.13,87,21,1.43,RU,1684964256
571,box elder,41.5005,-112.8764,67.64,49,95,3.29,US,1684964256
